event_index,event_name,station,longitude,latitude,true_pga,pred_pga,true_intensity_level,pred_intensity_level
1394,1808171009,EGFH,121.4274,23.6688,0.2823220491409302,3.43359375,0,2
1394,1808171009,ESL,121.4415,23.8121,1.479111909866333,2.505859375,1,2
1394,1808171009,HWA,121.6135,23.9751,2.4067957401275635,2.9296875,1,2
1394,1808171009,EHY,121.3299,23.5038,1.9162276983261108,0.4853515625,1,0
1394,1808171009,TWD,121.6048,24.0813,0.7340425252914429,1.861328125,0,1
1394,1808171009,TWF1,121.3053,23.3508,0.9840475916862488,0.350341796875,1,0
1394,1808171009,TWT,121.162,24.2495,12.797303199768066,0.94287109375,3,1
1394,1808171009,WHF,121.2724,24.1434,23.868541717529297,1.8203125,3,1
1394,1808171009,OWD,121.1759,23.9545,40.89323806762695,1.3837890625,4,1
1394,1808171009,ETLH,121.4818,24.2068,4.3090972900390625,3.505859375,2,2
1394,1808171009,FUSS,121.2438,24.2476,4.0852789878845215,1.9921875,2,1
1394,1808171009,EYUL,121.3191,23.3472,1.0089274644851685,0.501953125,1,0
1394,1808171009,ETM,121.4928,23.9655,1.851759910583496,2.67578125,1,2
1394,1808171009,EYL,121.602,23.9037,1.5991469621658325,4.65625,1,2
1394,1808171009,EGC,121.5475,23.7078,1.2992392778396606,2.412109375,1,1
1394,1808171009,ETL,121.623,24.1582,2.6334128379821777,5.109375,2,2
1394,1808171009,EHP,121.749,24.3075,1.8702073097229004,4.5078125,1,2
1394,1808171009,ECB,121.4512,23.3163,0.7890529632568359,0.84716796875,0,1
1394,1808171009,EAH,121.7393,24.3293,1.4372752904891968,2.03515625,1,1
1394,1808171009,SHUL,121.5627,23.7875,2.5788228511810303,2.294921875,2,1
1394,1808171009,EHYH,121.3451,23.4938,1.9586575031280518,1.8896484375,1,1
1394,1808171009,CHK,121.373,23.0977,0.6952723264694214,0.312744140625,0,0
1394,1808171009,ELD,121.025,23.1871,6.61336612701416,0.235107421875,2,0
1394,1808171009,NNSH,121.3829,24.4284,0.675072431564331,0.5703125,0,0
1394,1808171009,ENA,121.749,24.4263,1.0946476459503174,2.296875,1,1
1394,1808171009,NNS,121.3814,24.4374,2.0935704708099365,1.52734375,1,1
1394,1808171009,WJS,120.7279,23.8219,12.838382720947266,0.488037109375,3,0
1394,1808171009,WNT,120.6925,23.8767,13.735734939575195,0.27978515625,3,0
1394,1808171009,TCU,120.6841,24.1457,5.475063800811768,0.419677734375,2,0
1394,1808171009,STY,120.7655,23.1608,2.607710123062134,0.2264404296875,2,0
1394,1808171009,ENT,121.5736,24.6378,0.7987409830093384,0.91162109375,0,1
1394,1808171009,WDLH,120.5381,23.6888,6.445364952087402,0.79296875,2,0
1394,1808171009,TWC,121.8595,24.6082,0.3710764944553375,0.36572265625,0,0
1394,1808171009,NSK,121.3664,24.6735,0.3921642303466797,0.259521484375,0,0
1394,1808171009,WTP,120.6223,23.2438,1.0968981981277466,0.330810546875,1,0
1394,1808171009,NSY,120.7696,24.4143,2.7668583393096924,0.494873046875,2,0
1394,1808171009,TWG,121.0799,22.8177,0.42773181200027466,0.333251953125,0,0
1394,1808171009,CHN2,120.4744,23.5319,11.121196746826172,0.69189453125,3,0
1394,1808171009,TWE,121.6829,24.718,0.5807444453239441,0.26025390625,0,0
1394,1808171009,NST,121.0087,24.6296,1.7055509090423584,0.332275390625,1,0
1394,1808171009,CHY,120.4325,23.4963,5.915596008300781,0.413818359375,2,0
1394,1808171009,NWL,121.5025,24.7772,0.3899030089378357,0.299072265625,0,0
1394,1808171009,TWL,120.4999,23.2648,1.0624754428863525,0.34619140625,1,0
1394,1808171009,NMLH,120.791,24.5372,4.653847694396973,0.4736328125,2,0
1394,1808171009,CHN1,120.5285,23.185,1.8094745874404907,0.2301025390625,1,0
1394,1808171009,SGS,120.5908,23.0804,1.2602916955947876,0.3486328125,1,0
1394,1808171009,SLG,120.6463,22.9934,0.642061710357666,0.31787109375,0,0
1394,1808171009,WSF,120.2298,23.6364,7.013142108917236,0.424072265625,2,0
1394,1808171009,ECL,120.962,22.596,0.22838538885116577,0.263427734375,0,0
1394,1808171009,SSD,120.6402,22.7443,0.526498019695282,0.33544921875,0,0
1394,1808171009,EAS,120.8564,22.382,0.17037159204483032,0.341796875,0,0
1394,1808171009,SCZ,120.6282,22.3703,0.12422384321689606,0.292724609375,0,0
1394,1808171009,PNG,119.5636,23.5652,2.1444873809814453,0.32373046875,1,0
1394,1808171009,TYC,120.8697,23.9052,10.195821762084961,0.339111328125,3,0
1394,1808171009,YUS,120.9591,23.4873,4.427026748657227,2.056640625,2,1
1394,1808171009,NTC,121.8297,24.8544,0.41956478357315063,0.50146484375,0,0
1394,1808171009,TWB1,121.9972,25.0068,0.13582417368888855,0.368408203125,0,0
1394,1808171009,TTN,121.1549,22.7524,0.27236077189445496,0.466796875,0,0
1394,1808171009,CHN3,120.3643,23.0751,2.3371713161468506,0.52783203125,1,0
1394,1808171009,TWM1,120.4306,22.8214,0.6350013017654419,0.2340087890625,0,0
1394,1808171009,TWK1,120.8137,21.9402,0.0445527620613575,0.43603515625,0,0
1394,1808171009,LAY,121.5581,22.0373,0.2073868215084076,0.5517578125,0,0
1394,1808171009,EGS,121.9437,24.8427,0.10520981252193451,0.478271484375,0,0
1394,1808171009,ILA,121.7563,24.7638,0.5673440098762512,0.60498046875,0,0
1394,1808171009,TWA,121.5923,24.9778,0.1998162865638733,0.41845703125,0,0
1394,1808171009,TWS1,121.4234,25.1014,0.2562157213687897,0.406005859375,0,0
1394,1808171009,NTS,121.4492,25.1644,0.14517943561077118,0.53271484375,0,0
1394,1808171009,TWY,121.6078,25.2724,0.07496679574251175,0.319580078125,0,0
1394,1808171009,NCUH,121.1849,24.9679,0.7609491348266602,0.37158203125,0,0
1394,1808171009,TAP,121.5138,25.0377,0.2202395498752594,0.475341796875,0,0
1394,1808171009,HSN,121.0143,24.8282,1.211527705192566,0.26513671875,1,0
1394,1808171009,CHN8,120.2227,23.3474,4.085918426513672,0.36767578125,2,0
1394,1808171009,WDG,119.6675,23.2574,0.5624357461929321,0.2666015625,0,0
1394,1808171009,PCY,122.0799,25.628,6.22468900680542,0.666015625,2,0
1394,1808171009,TWQ1,120.7733,24.3465,3.277305841445923,0.303466796875,2,0
1394,1808171009,WTC,120.2892,23.8617,4.082147121429443,0.81005859375,2,1
1394,1808171009,SCL,120.2017,23.1735,5.279446601867676,0.358642578125,2,0
1394,1808171009,TAI1,120.2364,23.0379,2.2707488536834717,0.36328125,1,0
1394,1808171009,KNM,118.2892,24.4074,0.0873580351471901,0.7001953125,0,0
1394,1808171009,TAW,120.9036,22.3558,0.07695917040109634,0.47802734375,0,0
1394,1808171009,SGL,120.4985,22.7237,0.5070063471794128,0.331298828125,0,0
1394,1808171009,HEN,120.746,22.0038,0.5322282910346985,0.302978515625,0,0
1394,1808171009,WHY,120.8532,23.6961,11.378976821899414,0.5986328125,3,0
1394,1808171009,WHP,120.9458,24.2777,15.136734962463379,0.401611328125,3,0
1394,1808171009,NDT,121.5128,24.6025,0.6361843943595886,0.4091796875,0,0
1394,1808171009,WDJ,120.6403,24.3478,2.214883804321289,0.36572265625,1,0
1394,1808171009,SNS,120.4973,23.2198,1.488255262374878,0.2437744140625,1,0
1394,1808171009,ANP,121.5292,25.1826,4.360320568084717,0.3310546875,2,0
1394,1808171009,FULB,121.2939,23.1986,3.436469793319702,0.3896484375,2,0
1394,1808171009,EDH,121.3039,22.9725,0.5400054454803467,0.45703125,0,0
1394,1808171009,LONT,121.1299,22.9064,0.6572018265724182,0.5419921875,0,0
1394,1808171009,WTK,120.3886,23.6877,6.997300148010254,0.436279296875,2,0
1394,1808171009,LDU,121.4693,22.6733,0.17894859611988068,0.60986328125,0,0
1394,1808171009,ICHU,120.2793,23.3606,5.660486221313477,0.39599609375,2,0
1394,1808171009,SCS,120.4938,22.8856,1.2184998989105225,0.476318359375,1,0
1394,1808171009,TIPB,121.8256,24.9719,0.14430759847164154,0.367431640625,0,0
1394,1808171009,NOU,121.7734,25.1493,0.0976242646574974,0.49609375,0,0
1394,1808171009,NTY,121.2976,24.9997,0.7951812148094177,0.5771484375,0,0
1394,1808171009,LIOB,121.0162,24.6469,2.7900774478912354,0.4345703125,2,0
1394,1808171009,WPL,120.9492,24.014,8.894729614257812,0.646484375,3,0
1394,1808171009,DPDB,120.9264,24.0334,31.774005889892578,0.56982421875,4,0
1394,1808171009,WNT1,120.6798,23.9068,12.049720764160156,0.53369140625,3,0
1394,1808171009,SMG,120.6448,22.7054,0.3153339624404907,0.322998046875,0,0
1394,1808171009,SPT,120.4878,22.6782,0.48247218132019043,0.546875,0,0
1394,1808171009,SLIU,120.799,22.2162,0.08852430433034897,0.446044921875,0,0
1394,1808171009,NWR,121.6601,25.2028,0.2630684971809387,0.45703125,0,0
1394,1808171009,NSM,121.5886,25.2878,0.12991218268871307,0.87744140625,0,1
1394,1808171009,NHW,121.0475,25.0067,1.2599366903305054,0.54345703125,1,0
1394,1808171009,WCS,120.9116,24.0566,26.985685348510742,0.53662109375,4,0
1394,1808171009,EWT,121.7783,24.445,1.3653303384780884,2.552734375,1,2
1394,1808171009,NDS,121.7168,24.634,0.6672880053520203,0.5625,0,0
1394,1808171009,WRL,120.3781,23.9026,7.346906661987305,0.55126953125,2,0
1394,1808171009,ECS,121.2192,23.0953,1.0572394132614136,0.525390625,1,0
1394,1808171009,NJN,120.8703,24.6836,2.549196720123291,0.2445068359375,2,0
1394,1808171009,WYL,120.5801,23.9604,17.667922973632812,0.34716796875,3,0
1394,1808171009,TAI,120.197,22.9952,0.8409255743026733,0.607421875,1,0
1394,1808171009,WSL,120.2278,23.5226,3.6604230403900146,0.492919921875,2,0
1394,1808171009,EHD,121.2061,23.1488,1.342228889465332,0.2369384765625,1,0
1394,1808171009,SHH,120.3479,23.0213,1.7882561683654785,0.315185546875,1,0
1394,1808171009,WSS,120.2618,22.6418,0.2664835751056671,0.7724609375,0,0
1394,1808171009,TAWH,120.8878,22.3397,0.10349509119987488,0.412353515625,0,0
1394,1808171009,NFF,121.1177,24.6319,1.8655498027801514,0.299560546875,1,0
1394,1808171009,SMS,120.837,22.0204,0.0361451655626297,0.3251953125,0,0
1394,1808171009,WCKO,120.6047,23.4385,6.769304275512695,0.279296875,2,0
1394,1808171009,SCK,120.0865,23.1467,3.2653708457946777,0.29541015625,2,0
1394,1808171009,ESA,121.8439,24.5757,0.49517637491226196,0.783203125,0,0
1394,1808171009,CHKH,121.3957,23.1917,0.5578005909919739,0.473388671875,0,0
743,1604120323,EGFH,121.4274,23.6688,0.05839391052722931,3.158203125,0,2
743,1604120323,ESL,121.4415,23.8121,0.07927621901035309,2.109375,0,1
743,1604120323,HWA,121.6135,23.9751,2.879849433898926,3.853515625,2,2
743,1604120323,TWD,121.6048,24.0813,0.41317397356033325,1.4384765625,0,1
743,1604120323,WHF,121.2724,24.1434,0.1590573489665985,1.4091796875,0,1
743,1604120323,OWD,121.1759,23.9545,0.08946345001459122,1.01953125,0,1
743,1604120323,ETLH,121.4818,24.2068,0.43165501952171326,3.712890625,0,2
743,1604120323,FUSS,121.2438,24.2476,0.055080946534872055,1.513671875,0,1
743,1604120323,ETM,121.4928,23.9655,0.537307620048523,2.724609375,0,2
743,1604120323,EYL,121.602,23.9037,0.8596746921539307,5.50390625,1,2
743,1604120323,EGC,121.5475,23.7078,0.13454075157642365,1.9775390625,0,1
743,1604120323,ETL,121.623,24.1582,0.4966336488723755,5.37109375,0,2
743,1604120323,NNS,121.3814,24.4374,0.04358885809779167,1.17578125,0,1
743,1604120323,TWC,121.8595,24.6082,0.011993754655122757,0.3076171875,0,0
743,1604120323,TWE,121.6829,24.718,0.019289854913949966,0.22802734375,0,0
743,1604120323,NDT,121.5128,24.6025,0.015697231516242027,0.3359375,0,0
743,1604120323,DPDB,120.9264,24.0334,0.02361641824245453,0.4755859375,0,0
743,1604120323,EWT,121.7783,24.445,0.06168714910745621,2.470703125,0,1
743,1604120323,NDS,121.7168,24.634,0.03162912651896477,0.45458984375,0,0
1606,2107132302,EGFH,121.4274,23.6688,0.4039047062397003,3.03515625,0,2
1606,2107132302,ESL,121.4415,23.8121,1.8488394021987915,2.009765625,1,1
1606,2107132302,HWA,121.6135,23.9751,53.224430084228516,3.189453125,4,2
1606,2107132302,EHY,121.3299,23.5038,0.10809828341007233,0.397705078125,0,0
1606,2107132302,TWD,121.6048,24.0813,2.2604994773864746,1.3525390625,1,1
1606,2107132302,TWF1,121.3053,23.3508,0.030607597902417183,0.290771484375,0,0
1606,2107132302,TWT,121.162,24.2495,0.43897154927253723,0.68798828125,0,0
1606,2107132302,WHF,121.2724,24.1434,1.412951111793518,1.3349609375,1,1
1606,2107132302,OWD,121.1759,23.9545,0.7145594954490662,0.9697265625,0,1
1606,2107132302,ETLH,121.4818,24.2068,2.4720566272735596,3.43359375,1,2
1606,2107132302,FUSS,121.2438,24.2476,0.617740273475647,1.447265625,0,1
1606,2107132302,EYUL,121.3191,23.3472,0.06632444262504578,0.39599609375,0,0
1606,2107132302,ETM,121.4928,23.9655,6.464286804199219,2.505859375,2,2
1606,2107132302,EYL,121.602,23.9037,36.90254592895508,4.96875,4,2
1606,2107132302,EGC,121.5475,23.7078,1.1865489482879639,1.8896484375,1,1
1606,2107132302,ETL,121.623,24.1582,5.200310230255127,5.1875,2,2
1606,2107132302,EHP,121.749,24.3075,1.7350176572799683,4.73828125,1,2
1606,2107132302,ECB,121.4512,23.3163,0.09286770969629288,0.642578125,0,0
1606,2107132302,EAH,121.7393,24.3293,1.218095064163208,1.7021484375,1,1
1606,2107132302,SHUL,121.5627,23.7875,1.7115015983581543,1.9921875,1,1
1606,2107132302,EHYH,121.3451,23.4938,0.14367403090000153,1.3486328125,0,1
1606,2107132302,SML,120.9083,23.8813,0.24340029060840607,0.271240234375,0,0
1606,2107132302,CHK,121.373,23.0977,0.0951332375407219,0.26220703125,0,0
1606,2107132302,ALS,120.8134,23.5083,0.06459816545248032,0.28662109375,0,0
1606,2107132302,ELD,121.025,23.1871,4.831692218780518,0.209228515625,2,0
1606,2107132302,ENA,121.749,24.4263,1.2870111465454102,1.8896484375,1,1
1606,2107132302,NNS,121.3814,24.4374,0.8717620968818665,1.1171875,1,1
1606,2107132302,WJS,120.7279,23.8219,0.08356603980064392,0.391357421875,0,0
1606,2107132302,WNT,120.6925,23.8767,0.09106624126434326,0.2332763671875,0,0
1606,2107132302,CHN5,120.6776,23.5973,0.22945627570152283,0.44140625,0,0
1606,2107132302,WGK,120.5703,23.6844,0.14157234132289886,0.38623046875,0,0
1606,2107132302,TCU,120.6841,24.1457,0.0832739919424057,0.341552734375,0,0
1606,2107132302,WDLH,120.5381,23.6888,9.045574188232422,0.59375,3,0
1606,2107132302,TWC,121.8595,24.6082,0.3323614299297333,0.300537109375,0,0
1606,2107132302,NSK,121.3664,24.6735,0.21394816040992737,0.2232666015625,0,0
1606,2107132302,WTP,120.6223,23.2438,0.027539148926734924,0.27294921875,0,0
1606,2107132302,WCHH,120.5583,24.0795,0.29033926129341125,0.39453125,0,0
1606,2107132302,TWG,121.0799,22.8177,0.011568490415811539,0.2734375,0,0
1606,2107132302,CHN2,120.4744,23.5319,0.11559072881937027,0.525390625,0,0
1606,2107132302,TWE,121.6829,24.718,0.3085319995880127,0.22314453125,0,0
1606,2107132302,NST,121.0087,24.6296,0.11476224660873413,0.27099609375,0,0
1606,2107132302,CHY,120.4325,23.4963,0.10727132111787796,0.34228515625,0,0
1606,2107132302,NWL,121.5025,24.7772,0.20683132112026215,0.250732421875,0,0
1606,2107132302,NMLH,120.791,24.5372,0.183900848031044,0.37890625,0,0
1606,2107132302,CHN1,120.5285,23.185,6.801602363586426,0.204833984375,2,0
1606,2107132302,SGS,120.5908,23.0804,0.030436718836426735,0.2861328125,0,0
1606,2107132302,SLG,120.6463,22.9934,0.019012579694390297,0.2646484375,0,0
1606,2107132302,ECL,120.962,22.596,0.00971916876733303,0.2296142578125,0,0
1606,2107132302,SSD,120.6402,22.7443,0.015135235153138638,0.277587890625,0,0
1606,2107132302,EAS,120.8564,22.382,0.017642349004745483,0.278564453125,0,0
1606,2107132302,SCZ,120.6282,22.3703,0.007422030903398991,0.2457275390625,0,0
1606,2107132302,TYC,120.8697,23.9052,0.05597250163555145,0.277587890625,0,0
1606,2107132302,YUS,120.9591,23.4873,0.1688878983259201,1.5849609375,0,1
1606,2107132302,TWB1,121.9972,25.0068,0.036755625158548355,0.30029296875,0,0
1606,2107132302,CHN4,120.594,23.3513,0.0748969167470932,0.228271484375,0,0
1606,2107132302,TWK1,120.8137,21.9402,0.006622666958719492,0.34423828125,0,0
1606,2107132302,EGS,121.9437,24.8427,0.03376369923353195,0.38037109375,0,0
1606,2107132302,ILA,121.7563,24.7638,0.2400541603565216,0.476318359375,0,0
1606,2107132302,TWA,121.5923,24.9778,0.06152476742863655,0.3251953125,0,0
1606,2107132302,TWS1,121.4234,25.1014,0.06804490089416504,0.323486328125,0,0
1606,2107132302,NTS,121.4492,25.1644,0.09770666062831879,0.422607421875,0,0
1606,2107132302,TAP,121.5138,25.0377,0.09736718982458115,0.37744140625,0,0
1606,2107132302,HSN,121.0143,24.8282,0.10213860124349594,0.22607421875,0,0
1606,2107132302,WDG,119.6675,23.2574,1.751952052116394,0.2288818359375,1,0
1606,2107132302,TWQ1,120.7733,24.3465,0.08171539008617401,0.2548828125,0,0
1606,2107132302,SEB,120.8552,21.9009,0.01228688471019268,0.416259765625,0,0
1606,2107132302,WHY,120.8532,23.6961,0.08296894282102585,0.47705078125,0,0
1606,2107132302,WHP,120.9458,24.2777,0.11032204329967499,0.3251953125,0,0
1606,2107132302,NDT,121.5128,24.6025,0.19926634430885315,0.32861328125,0,0
1606,2107132302,WDJ,120.6403,24.3478,0.06556287407875061,0.299072265625,0,0
1606,2107132302,ANP,121.5292,25.1826,1.6411405801773071,0.2724609375,1,0
1606,2107132302,FULB,121.2939,23.1986,0.08059723675251007,0.326171875,0,0
1606,2107132302,EDH,121.3039,22.9725,0.07782062143087387,0.37451171875,0,0
1606,2107132302,NOU,121.7734,25.1493,0.047993119806051254,0.39990234375,0,0
1606,2107132302,LIOB,121.0162,24.6469,0.13267652690410614,0.34716796875,0,0
1606,2107132302,WPL,120.9492,24.014,0.5597126483917236,0.50537109375,0,0
1606,2107132302,DPDB,120.9264,24.0334,0.3016064763069153,0.46337890625,0,0
1606,2107132302,WCS,120.9116,24.0566,0.2079566866159439,0.431884765625,0,0
1606,2107132302,NDS,121.7168,24.634,0.607382595539093,0.440185546875,0,0
1606,2107132302,STYH,120.7811,23.1794,0.03257663547992706,0.1817626953125,0,0
1606,2107132302,WRL,120.3781,23.9026,0.5906130075454712,0.436767578125,0,0
1606,2107132302,WSL,120.2278,23.5226,0.07110511511564255,0.3876953125,0,0
1606,2107132302,EHD,121.2061,23.1488,0.04614273086190224,0.2071533203125,0,0
1606,2107132302,NFF,121.1177,24.6319,0.0767340138554573,0.249267578125,0,0
1606,2107132302,WCKO,120.6047,23.4385,9.37714672088623,0.234375,3,0
1606,2107132302,SCK,120.0865,23.1467,0.13233639299869537,0.245849609375,0,0
1606,2107132302,ESA,121.8439,24.5757,0.4731326103210449,0.58544921875,0,0
1606,2107132302,CHKH,121.3957,23.1917,0.07477538287639618,0.37744140625,0,0
1606,2107132302,WDL,120.5386,23.7148,0.17633689939975739,0.3662109375,0,0
1606,2107132302,WCH1,120.5468,24.0718,0.35132431983947754,0.356201171875,0,0
1606,2107132302,KSHI,121.176,24.7766,0.20628120005130768,0.2646484375,0,0
49,1202171733,ESL,121.4415,23.8121,1.0019382238388062,1.90625,1,1
49,1202171733,HWA,121.6135,23.9751,1.8390653133392334,2.80859375,1,2
49,1202171733,EHY,121.3299,23.5038,0.27508631348609924,0.40087890625,0,0
49,1202171733,TWD,121.6048,24.0813,0.5624482035636902,1.2861328125,0,1
49,1202171733,TWF1,121.3053,23.3508,0.07091181725263596,0.29443359375,0,0
49,1202171733,TWT,121.162,24.2495,0.7714767456054688,0.68310546875,0,0
49,1202171733,WHF,121.2724,24.1434,1.4619791507720947,1.271484375,1,1
49,1202171733,OWD,121.1759,23.9545,0.8906354904174805,0.9453125,1,1
49,1202171733,SML,120.9083,23.8813,0.250627338886261,0.2744140625,0,0
49,1202171733,CHK,121.373,23.0977,0.7274911999702454,0.26611328125,0,0
49,1202171733,ELD,121.025,23.1871,0.11420027166604996,0.2125244140625,0,0
49,1202171733,NNSH,121.3829,24.4284,0.5361774563789368,0.47705078125,0,0
49,1202171733,ENA,121.749,24.4263,0.8150498270988464,1.7626953125,1,1
49,1202171733,NNS,121.3814,24.4374,1.5982182025909424,1.07421875,1,1
49,1202171733,WJS,120.7279,23.8219,0.09985703974962234,0.392822265625,0,0
49,1202171733,WNT,120.6925,23.8767,0.108326256275177,0.23681640625,0,0
49,1202171733,CHN5,120.6776,23.5973,0.17667090892791748,0.447021484375,0,0
49,1202171733,TCU,120.6841,24.1457,0.2191561907529831,0.34423828125,0,0
49,1202171733,STY,120.7655,23.1608,0.06594933569431305,0.2078857421875,0,0
49,1202171733,ENT,121.5736,24.6378,0.5048784613609314,0.6962890625,0,0
49,1202171733,WDLH,120.5381,23.6888,0.41813352704048157,0.5927734375,0,0
49,1202171733,TWC,121.8595,24.6082,0.3154120445251465,0.303955078125,0,0
49,1202171733,NSK,121.3664,24.6735,0.21079492568969727,0.2265625,0,0
49,1202171733,WTP,120.6223,23.2438,0.04477795213460922,0.275146484375,0,0
49,1202171733,WCHH,120.5583,24.0795,1.3572719097137451,0.3974609375,1,0
49,1202171733,NSY,120.7696,24.4143,0.18381336331367493,0.388671875,0,0
49,1202171733,TWG,121.0799,22.8177,0.029304124414920807,0.2763671875,0,0
49,1202171733,TWE,121.6829,24.718,0.2379080355167389,0.2265625,0,0
49,1202171733,NST,121.0087,24.6296,0.13974066078662872,0.2744140625,0,0
49,1202171733,CHY,120.4325,23.4963,0.1361335664987564,0.345703125,0,0
49,1202171733,NWL,121.5025,24.7772,0.2522033452987671,0.254150390625,0,0
49,1202171733,NMLH,120.791,24.5372,0.26809367537498474,0.381103515625,0,0
49,1202171733,CHN1,120.5285,23.185,0.041629742830991745,0.2076416015625,0,0
49,1202171733,SGS,120.5908,23.0804,0.058027733117341995,0.2890625,0,0
49,1202171733,SLG,120.6463,22.9934,0.04019186645746231,0.26806640625,0,0
49,1202171733,WSF,120.2298,23.6364,0.24446986615657806,0.344482421875,0,0
49,1202171733,ECL,120.962,22.596,0.029772857204079628,0.2322998046875,0,0
49,1202171733,NWF,121.7815,25.0715,0.1837078183889389,0.415771484375,0,0
49,1202171733,EAS,120.8564,22.382,0.02033165656030178,0.28125,0,0
49,1202171733,SCZ,120.6282,22.3703,0.010006114840507507,0.2486572265625,0,0
49,1202171733,PNG,119.5636,23.5652,0.07757996022701263,0.2734375,0,0
49,1202171733,ENAH,121.8102,24.4494,0.48572641611099243,0.5078125,0,0
49,1202171733,YUS,120.9591,23.4873,0.4154099225997925,1.47265625,0,1
49,1202171733,NTC,121.8297,24.8544,0.4476016163825989,0.40673828125,0,0
49,1202171733,TWB1,121.9972,25.0068,0.06013805791735649,0.303466796875,0,0
49,1202171733,CHN3,120.3643,23.0751,0.05133300647139549,0.413818359375,0,0
49,1202171733,TWM1,120.4306,22.8214,0.028830600902438164,0.211181640625,0,0
49,1202171733,SSP,120.5681,22.4835,0.07182147353887558,0.282470703125,0,0
49,1202171733,TWK1,120.8137,21.9402,0.09164454787969589,0.34814453125,0,0
49,1202171733,LAY,121.5581,22.0373,0.08144059032201767,0.445556640625,0,0
49,1202171733,EGS,121.9437,24.8427,0.08721839636564255,0.384033203125,0,0
49,1202171733,ILA,121.7563,24.7638,0.2601681053638458,0.479736328125,0,0
49,1202171733,TWA,121.5923,24.9778,0.07670241594314575,0.3291015625,0,0
49,1202171733,TWS1,121.4234,25.1014,0.10245411843061447,0.325927734375,0,0
49,1202171733,NTS,121.4492,25.1644,0.0922977477312088,0.42626953125,0,0
49,1202171733,NCUH,121.1849,24.9679,0.18992260098457336,0.30224609375,0,0
49,1202171733,HSN,121.0143,24.8282,0.19120189547538757,0.2291259765625,0,0
49,1202171733,CHN8,120.2227,23.3474,0.08032462745904922,0.30419921875,0,0
49,1202171733,WTC,120.2892,23.8617,0.5716971158981323,0.60498046875,0,0
49,1202171733,KNM,118.2892,24.4074,0.0043538762256503105,0.54541015625,0,0
49,1202171733,SGL,120.4985,22.7237,0.03297676146030426,0.27587890625,0,0
188,1206171916,EGFH,121.4274,23.6688,0.29149308800697327,3.013671875,0,2
188,1206171916,ESL,121.4415,23.8121,0.4356173276901245,1.9921875,0,1
188,1206171916,EHY,121.3299,23.5038,0.03757413476705551,0.404296875,0,0
188,1206171916,TWD,121.6048,24.0813,0.014634464867413044,1.3408203125,0,1
188,1206171916,TWF1,121.3053,23.3508,0.0054490091279149055,0.296142578125,0,0
188,1206171916,SML,120.9083,23.8813,0.0036480079870671034,0.2763671875,0,0
188,1206171916,CHK,121.373,23.0977,0.027608059346675873,0.26708984375,0,0
188,1206171916,ALS,120.8134,23.5083,0.011592278257012367,0.29150390625,0,0
188,1206171916,ELD,121.025,23.1871,0.007523896172642708,0.213134765625,0,0
188,1206171916,NNSH,121.3829,24.4284,0.016384806483983994,0.482421875,0,0
188,1206171916,ENA,121.749,24.4263,0.008572030812501907,1.837890625,0,1
188,1206171916,NNS,121.3814,24.4374,0.007766585797071457,1.11328125,0,1
188,1206171916,WJS,120.7279,23.8219,0.006949799135327339,0.39697265625,0,0
188,1206171916,WGK,120.5703,23.6844,0.007331276778131723,0.391845703125,0,0
188,1206171916,ENT,121.5736,24.6378,0.0053018140606582165,0.70947265625,0,0
188,1206171916,WDLH,120.5381,23.6888,0.02579241245985031,0.6044921875,0,0
188,1206171916,NSK,121.3664,24.6735,0.012376440688967705,0.22705078125,0,0
188,1206171916,WTP,120.6223,23.2438,0.007025166880339384,0.277587890625,0,0
188,1206171916,TWE,121.6829,24.718,0.003870418993756175,0.2275390625,0,0
188,1206171916,TWL,120.4999,23.2648,0.00885144155472517,0.28466796875,0,0
188,1206171916,CHN1,120.5285,23.185,0.013089063577353954,0.208251953125,0,0
188,1206171916,SSD,120.6402,22.7443,0.005204976070672274,0.28173828125,0,0
188,1206171916,TYC,120.8697,23.9052,0.0035886429250240326,0.283203125,0,0
188,1206171916,CHN4,120.594,23.3513,0.007179690059274435,0.232177734375,0,0
482,1405270417,EGFH,121.4274,23.6688,1.948544979095459,3.1796875,1,2
482,1405270417,ESL,121.4415,23.8121,0.7124113440513611,2.1328125,0,1
482,1405270417,HWA,121.6135,23.9751,0.1557539850473404,2.880859375,0,2
482,1405270417,EHY,121.3299,23.5038,0.45376697182655334,0.4287109375,0,0
482,1405270417,TWD,121.6048,24.0813,0.030323488637804985,1.4541015625,0,1
482,1405270417,TWF1,121.3053,23.3508,0.08773407340049744,0.3173828125,0,0
482,1405270417,WHF,121.2724,24.1434,0.2122826874256134,1.431640625,0,1
482,1405270417,OWD,121.1759,23.9545,0.5230319499969482,1.056640625,0,1
482,1405270417,ETLH,121.4818,24.2068,0.1945214569568634,3.365234375,0,2
482,1405270417,SML,120.9083,23.8813,0.0591580830514431,0.29345703125,0,0
482,1405270417,ELD,121.025,23.1871,0.054795026779174805,0.22216796875,0,0
482,1405270417,NNSH,121.3829,24.4284,0.033415764570236206,0.50732421875,0,0
482,1405270417,ENA,121.749,24.4263,0.026203544810414314,1.9609375,0,1
482,1405270417,NNS,121.3814,24.4374,0.061726249754428864,1.2001953125,0,1
482,1405270417,WNT,120.6925,23.8767,0.020519588142633438,0.253173828125,0,0
482,1405270417,CHN5,120.6776,23.5973,0.033630046993494034,0.482666015625,0,0
482,1405270417,STY,120.7655,23.1608,0.01515065785497427,0.2171630859375,0,0
482,1405270417,ENT,121.5736,24.6378,0.018587641417980194,0.7509765625,0,0
482,1405270417,WDLH,120.5381,23.6888,0.14194339513778687,0.640625,0,0
482,1405270417,TWC,121.8595,24.6082,0.008875871077179909,0.326171875,0,0
482,1405270417,NSK,121.3664,24.6735,0.010211209766566753,0.2401123046875,0,0
482,1405270417,WTP,120.6223,23.2438,0.007020228076726198,0.29638671875,0,0
482,1405270417,TWG,121.0799,22.8177,0.004771390929818153,0.296875,0,0
482,1405270417,NST,121.0087,24.6296,0.011626544408500195,0.2958984375,0,0
482,1405270417,NWL,121.5025,24.7772,0.03713926672935486,0.27099609375,0,0
482,1405270417,TWL,120.4999,23.2648,0.005558449774980545,0.3046875,0,0
482,1405270417,CHN1,120.5285,23.185,0.007241412065923214,0.2169189453125,0,0
482,1405270417,SGS,120.5908,23.0804,0.004903018940240145,0.310791015625,0,0
482,1405270417,SLG,120.6463,22.9934,0.012931839562952518,0.287109375,0,0
482,1405270417,TWQ1,120.7733,24.3465,0.01462410856038332,0.274169921875,0,0
482,1405270417,WHY,120.8532,23.6961,0.0373285636305809,0.513671875,0,0
482,1405270417,WHP,120.9458,24.2777,0.009892054833471775,0.349609375,0,0
482,1405270417,NDT,121.5128,24.6025,0.008461005985736847,0.35400390625,0,0
892,1609240936,EGFH,121.4274,23.6688,6.667068958282471,9.5,2,3
892,1609240936,ESL,121.4415,23.8121,7.902228832244873,7.6484375,2,2
892,1609240936,HWA,121.6135,23.9751,9.432246208190918,11.515625,3,3
892,1609240936,EHY,121.3299,23.5038,1.036637544631958,0.912109375,1,1
892,1609240936,TWD,121.6048,24.0813,6.9240922927856445,6.39453125,2,2
892,1609240936,TWF1,121.3053,23.3508,0.2829408347606659,0.51513671875,0,0
892,1609240936,TWT,121.162,24.2495,2.262082815170288,3.458984375,1,2
892,1609240936,WHF,121.2724,24.1434,4.8778486251831055,6.12890625,2,2
892,1609240936,OWD,121.1759,23.9545,9.338436126708984,5.0,3,2
892,1609240936,ETLH,121.4818,24.2068,12.201233863830566,10.828125,3,3
892,1609240936,FUSS,121.2438,24.2476,4.283726215362549,6.125,2,2
892,1609240936,EYUL,121.3191,23.3472,0.53741055727005,0.95947265625,0,1
892,1609240936,ETM,121.4928,23.9655,21.66916847229004,9.609375,3,3
892,1609240936,EYL,121.602,23.9037,3.9512991905212402,12.40625,2,3
892,1609240936,EGC,121.5475,23.7078,1.3446707725524902,7.2265625,1,2
892,1609240936,ETL,121.623,24.1582,5.73696231842041,12.296875,2,3
892,1609240936,EHP,121.749,24.3075,2.149172782897949,12.15625,1,3
892,1609240936,ECB,121.4512,23.3163,0.3024829626083374,2.1953125,0,1
892,1609240936,SML,120.9083,23.8813,0.3844599723815918,0.50341796875,0,0
892,1609240936,CHK,121.373,23.0977,0.3153334856033325,0.45849609375,0,0
892,1609240936,ALS,120.8134,23.5083,0.1765325367450714,0.52197265625,0,0
892,1609240936,ELD,121.025,23.1871,0.29507264494895935,0.342041015625,0,0
892,1609240936,NNSH,121.3829,24.4284,1.1650148630142212,1.361328125,1,1
892,1609240936,ENA,121.749,24.4263,1.7113888263702393,7.90625,1,2
892,1609240936,NNS,121.3814,24.4374,3.041942834854126,5.55859375,2,2
892,1609240936,WJS,120.7279,23.8219,0.30666133761405945,0.97021484375,0,1
892,1609240936,WNT,120.6925,23.8767,0.27615436911582947,0.4169921875,0,0
892,1609240936,WGK,120.5703,23.6844,0.3471623957157135,0.93115234375,0,1
892,1609240936,TCU,120.6841,24.1457,0.1774541735649109,0.77294921875,0,0
892,1609240936,ENT,121.5736,24.6378,0.4529687464237213,3.388671875,0,2
892,1609240936,WDLH,120.5381,23.6888,0.3986596167087555,3.166015625,0,2
892,1609240936,TWC,121.8595,24.6082,0.2391197830438614,0.5771484375,0,0
892,1609240936,NSK,121.3664,24.6735,0.150933176279068,0.379150390625,0,0
892,1609240936,WTP,120.6223,23.2438,0.08528310060501099,0.52587890625,0,0
892,1609240936,WCHH,120.5583,24.0795,0.5948343873023987,0.95849609375,0,1
892,1609240936,NSY,120.7696,24.4143,0.2410605400800705,1.18359375,0,1
892,1609240936,TWG,121.0799,22.8177,0.03786342218518257,0.53369140625,0,0
892,1609240936,CHN2,120.4744,23.5319,0.37318524718284607,2.615234375,0,2
892,1609240936,TWE,121.6829,24.718,0.16216622292995453,0.38232421875,0,0
892,1609240936,NST,121.0087,24.6296,0.15726807713508606,0.52197265625,0,0
892,1609240936,CHY,120.4325,23.4963,0.3881569504737854,0.73779296875,0,0
892,1609240936,TWL,120.4999,23.2648,0.06214286759495735,0.57421875,0,0
892,1609240936,NMLH,120.791,24.5372,0.47156456112861633,0.9453125,0,1
892,1609240936,CHN1,120.5285,23.185,0.09484689682722092,0.33447265625,0,0
892,1609240936,SGS,120.5908,23.0804,0.08508900552988052,0.56201171875,0,0
892,1609240936,WSF,120.2298,23.6364,0.6095026731491089,0.85888671875,0,1
892,1609240936,SSD,120.6402,22.7443,0.050841763615608215,0.54248046875,0,0
892,1609240936,NWF,121.7815,25.0715,0.25338590145111084,1.1630859375,0,1
892,1609240936,PNG,119.5636,23.5652,0.11627694964408875,0.477783203125,0,0
892,1609240936,TYC,120.8697,23.9052,0.08422337472438812,0.54443359375,0,0
892,1609240936,YUS,120.9591,23.4873,0.6618984341621399,7.3515625,0,2
892,1609240936,NTC,121.8297,24.8544,0.18867209553718567,1.205078125,0,1
892,1609240936,TWB1,121.9972,25.0068,0.03369901701807976,0.6220703125,0,0
892,1609240936,CHN4,120.594,23.3513,0.16730369627475739,0.41845703125,0,0
892,1609240936,EGS,121.9437,24.8427,0.030503906309604645,1.021484375,0,1
892,1609240936,ILA,121.7563,24.7638,0.2025059163570404,1.8603515625,0,1
892,1609240936,TWA,121.5923,24.9778,0.06192956492304802,0.7978515625,0,0
892,1609240936,TWS1,121.4234,25.1014,0.08600740879774094,0.7587890625,0,0
892,1609240936,NTS,121.4492,25.1644,0.09447945654392242,1.412109375,0,1
892,1609240936,TWY,121.6078,25.2724,0.024348540231585503,0.5048828125,0,0
892,1609240936,TAP,121.5138,25.0377,0.12965038418769836,0.92041015625,0,1
892,1609240936,HSN,121.0143,24.8282,0.12412407249212265,0.397705078125,0,0
892,1609240936,NCU,121.1944,24.9673,0.16233214735984802,0.58837890625,0,0
892,1609240936,WDG,119.6675,23.2574,0.023403311148285866,0.393798828125,0,0
892,1609240936,PCY,122.0799,25.628,0.009694411419332027,2.2734375,0,1
892,1609240936,TWQ1,120.7733,24.3465,0.20028045773506165,0.475341796875,0,0
892,1609240936,WHP,120.9458,24.2777,0.384438157081604,0.79150390625,0,0
892,1609240936,NDT,121.5128,24.6025,0.29545366764068604,0.74169921875,0,0
892,1609240936,WDJ,120.6403,24.3478,0.09584251046180725,0.61181640625,0,0
892,1609240936,NHDH,121.525,24.963,0.21392421424388885,1.3603515625,0,1
892,1609240936,SNS,120.4973,23.2198,0.08910344541072845,0.351318359375,0,0
892,1609240936,ANP,121.5292,25.1826,0.09482414275407791,0.50927734375,0,0
892,1609240936,FULB,121.2939,23.1986,0.36500558257102966,0.65478515625,0,0
892,1609240936,EDH,121.3039,22.9725,0.24791862070560455,0.79638671875,0,0
892,1609240936,LONT,121.1299,22.9064,0.06783030927181244,1.3701171875,0,1
892,1609240936,LDU,121.4693,22.6733,0.060434795916080475,1.826171875,0,1
892,1609240936,ICHU,120.2793,23.3606,0.2647014558315277,0.6533203125,0,0
892,1609240936,TIPB,121.8256,24.9719,0.04468656703829765,0.5869140625,0,0
892,1609240936,NOU,121.7734,25.1493,0.047277241945266724,0.9931640625,0,1
892,1609240936,LIOB,121.0162,24.6469,0.16027265787124634,0.849609375,0,1
892,1609240936,HSN1,121.018,24.778,0.09839808940887451,0.198974609375,0,0
892,1609240936,WPL,120.9492,24.014,0.8077921867370605,1.8623046875,1,1
892,1609240936,DPDB,120.9264,24.0334,0.9436039328575134,1.7392578125,1,1
892,1609240936,WWF,120.6983,24.0427,0.20587922632694244,0.6279296875,0,0
892,1609240936,WNT1,120.6798,23.9068,0.24130913615226746,1.421875,0,1
892,1609240936,NHW,121.0475,25.0067,0.1906270980834961,1.4560546875,0,1
892,1609240936,WCS,120.9116,24.0566,0.43661442399024963,1.3017578125,0,1
892,1609240936,EWT,121.7783,24.445,1.5694680213928223,9.0625,1,3
892,1609240936,STYH,120.7811,23.1794,0.1458493024110794,0.241455078125,0,0
892,1609240936,WRL,120.3781,23.9026,0.5893276333808899,1.865234375,0,1
892,1609240936,NJD,121.0881,24.7358,0.23431476950645447,0.60986328125,0,0
892,1609240936,WYL,120.5801,23.9604,0.40832266211509705,0.56005859375,0,0
892,1609240936,WSL,120.2278,23.5226,0.6521629691123962,1.0546875,0,1
892,1609240936,NFF,121.1177,24.6319,0.10759460926055908,0.470703125,0,0
892,1609240936,WCKO,120.6047,23.4385,0.4117768108844757,0.4130859375,0,0
613,1506140552,EGFH,121.4274,23.6688,0.24368998408317566,2.94140625,0,2
613,1506140552,ESL,121.4415,23.8121,0.2108636200428009,1.939453125,0,1
613,1506140552,EHY,121.3299,23.5038,0.5836516618728638,0.3984375,0,0
613,1506140552,TWD,121.6048,24.0813,0.024299398064613342,1.30859375,0,1
613,1506140552,TWF1,121.3053,23.3508,0.21368500590324402,0.290283203125,0,0
613,1506140552,WHF,121.2724,24.1434,0.14920958876609802,1.2919921875,0,1
613,1506140552,ETLH,121.4818,24.2068,0.11670434474945068,3.23046875,0,2
613,1506140552,FUSS,121.2438,24.2476,0.10014358162879944,1.4072265625,0,1
613,1506140552,EYUL,121.3191,23.3472,0.5152631998062134,0.397705078125,0,0
613,1506140552,EYL,121.602,23.9037,0.18532510101795197,4.6171875,0,2
613,1506140552,EGC,121.5475,23.7078,0.2878056466579437,1.833984375,0,1
613,1506140552,ECB,121.4512,23.3163,7.308982849121094,0.642578125,2,0
613,1506140552,SML,120.9083,23.8813,0.05781538411974907,0.271484375,0,0
613,1506140552,CHK,121.373,23.0977,1.5842026472091675,0.26220703125,1,0
613,1506140552,ALS,120.8134,23.5083,0.1114443689584732,0.286865234375,0,0
613,1506140552,ELD,121.025,23.1871,0.11056148260831833,0.2103271484375,0,0
613,1506140552,NNSH,121.3829,24.4284,0.026806512847542763,0.474365234375,0,0
613,1506140552,NNS,121.3814,24.4374,0.04707487300038338,1.0888671875,0,1
613,1506140552,WJS,120.7279,23.8219,0.047487396746873856,0.39111328125,0,0
613,1506140552,WNT,120.6925,23.8767,0.08458169549703598,0.2335205078125,0,0
613,1506140552,CHN5,120.6776,23.5973,0.14434202015399933,0.443603515625,0,0
613,1506140552,TCU,120.6841,24.1457,0.08752183616161346,0.341796875,0,0
613,1506140552,STY,120.7655,23.1608,0.06955315172672272,0.2047119140625,0,0
613,1506140552,ENT,121.5736,24.6378,0.05542505159974098,0.69970703125,0,0
613,1506140552,WDLH,120.5381,23.6888,0.2169007658958435,0.59375,0,0
613,1506140552,TWC,121.8595,24.6082,0.019063884392380714,0.30078125,0,0
613,1506140552,WTP,120.6223,23.2438,0.047613076865673065,0.273193359375,0,0
613,1506140552,WCHH,120.5583,24.0795,0.22127588093280792,0.395263671875,0,0
613,1506140552,NSY,120.7696,24.4143,0.035475291311740875,0.386474609375,0,0
613,1506140552,TWG,121.0799,22.8177,0.04118771478533745,0.273681640625,0,0
613,1506140552,NST,121.0087,24.6296,0.013188710436224937,0.271240234375,0,0
613,1506140552,CHY,120.4325,23.4963,0.058448683470487595,0.34326171875,0,0
613,1506140552,NWL,121.5025,24.7772,0.02375480718910694,0.2509765625,0,0
613,1506140552,TWL,120.4999,23.2648,0.020750751718878746,0.280029296875,0,0
613,1506140552,NMLH,120.791,24.5372,0.08349219709634781,0.37890625,0,0
613,1506140552,CHN1,120.5285,23.185,0.032229866832494736,0.20556640625,0,0
613,1506140552,SGS,120.5908,23.0804,0.020539630204439163,0.286865234375,0,0
613,1506140552,SLG,120.6463,22.9934,0.04749772325158119,0.2646484375,0,0
613,1506140552,SSD,120.6402,22.7443,0.023567048832774162,0.277587890625,0,0
613,1506140552,EAS,120.8564,22.382,0.07353682070970535,0.27880859375,0,0
613,1506140552,SCZ,120.6282,22.3703,0.00605955021455884,0.245849609375,0,0
613,1506140552,PNG,119.5636,23.5652,0.03429679200053215,0.269775390625,0,0
613,1506140552,TYC,120.8697,23.9052,0.016378231346607208,0.27783203125,0,0
613,1506140552,NTC,121.8297,24.8544,0.1440085470676422,0.404052734375,0,0
613,1506140552,TWB1,121.9972,25.0068,0.013886364176869392,0.30078125,0,0
613,1506140552,CHN4,120.594,23.3513,0.05080609768629074,0.228759765625,0,0
613,1506140552,TTN,121.1549,22.7524,0.0782022550702095,0.366455078125,0,0
613,1506140552,TWM1,120.4306,22.8214,0.020333148539066315,0.2081298828125,0,0
613,1506140552,TWK1,120.8137,21.9402,0.0057812961749732494,0.345458984375,0,0
613,1506140552,CHN8,120.2227,23.3474,0.06263598054647446,0.302001953125,0,0
613,1506140552,WDG,119.6675,23.2574,0.0032768279779702425,0.2293701171875,0,0
613,1506140552,PCY,122.0799,25.628,0.009112299419939518,0.51953125,0,0
613,1506140552,KNM,118.2892,24.4074,3.0769457817077637,0.54248046875,2,0
613,1506140552,WLCH,120.3788,22.3508,0.013797854073345661,0.321533203125,0,0
613,1506140552,SEB,120.8552,21.9009,0.012216409668326378,0.416259765625,0,0
613,1506140552,WHY,120.8532,23.6961,0.04382514953613281,0.47900390625,0,0
613,1506140552,WHP,120.9458,24.2777,0.05607049539685249,0.32568359375,0,0
613,1506140552,WDJ,120.6403,24.3478,0.050317246466875076,0.29931640625,0,0
613,1506140552,SNS,120.4973,23.2198,0.2023220658302307,0.217041015625,0,0
613,1506140552,FULB,121.2939,23.1986,0.8033299446105957,0.326904296875,1,0
613,1506140552,EDH,121.3039,22.9725,2.48958158493042,0.375,1,0
613,1506140552,LONT,121.1299,22.9064,0.0693114623427391,0.432861328125,0,0
613,1506140552,WTK,120.3886,23.6877,0.2642155885696411,0.35400390625,0,0
613,1506140552,LDU,121.4693,22.6733,0.08368494361639023,0.474365234375,0,0
613,1506140552,SCS,120.4938,22.8856,0.07698880136013031,0.380859375,0,0
613,1506140552,TIPB,121.8256,24.9719,0.00564946886152029,0.300048828125,0,0
613,1506140552,LIOB,121.0162,24.6469,0.02676626667380333,0.347412109375,0,0
613,1506140552,WPL,120.9492,24.014,0.02369535341858864,0.5068359375,0,0
613,1506140552,DPDB,120.9264,24.0334,0.0524403378367424,0.463134765625,0,0
613,1506140552,WWF,120.6983,24.0427,0.0575077086687088,0.31640625,0,0
613,1506140552,WNT1,120.6798,23.9068,0.05589772015810013,0.425048828125,0,0
613,1506140552,SMG,120.6448,22.7054,0.02777925319969654,0.26611328125,0,0
613,1506140552,SLIU,120.799,22.2162,0.024161549285054207,0.363037109375,0,0
613,1506140552,WCS,120.9116,24.0566,0.07933724671602249,0.432373046875,0,0
613,1506140552,NDS,121.7168,24.634,0.02229311317205429,0.44140625,0,0
613,1506140552,STYH,120.7811,23.1794,0.08401757478713989,0.1815185546875,0,0
613,1506140552,ECS,121.2192,23.0953,0.4383555054664612,0.417724609375,0,0
1628,2107152333,ESL,121.4415,23.8121,3.5208494663238525,7.8359375,2,2
1628,2107152333,HWA,121.6135,23.9751,66.2513198852539,47.09375,4,4
1628,2107152333,EHY,121.3299,23.5038,1.2176320552825928,0.50830078125,1,0
1628,2107152333,TWD,121.6048,24.0813,2.6069602966308594,6.71484375,2,2
1628,2107152333,TWF1,121.3053,23.3508,0.10164151340723038,0.344482421875,0,0
1628,2107152333,TWT,121.162,24.2495,0.9683109521865845,2.3125,1,1
1628,2107152333,WHF,121.2724,24.1434,3.268604278564453,6.2265625,2,2
1628,2107152333,OWD,121.1759,23.9545,1.4633878469467163,4.27734375,1,2
1628,2107152333,ETLH,121.4818,24.2068,8.81985855102539,21.484375,3,3
1628,2107152333,ETM,121.4928,23.9655,14.499197006225586,18.15625,3,3
1628,2107152333,EYL,121.602,23.9037,41.44526290893555,40.5,4,4
1628,2107152333,EGC,121.5475,23.7078,3.9426889419555664,7.0703125,2,2
1628,2107152333,ETL,121.623,24.1582,3.5492098331451416,18.515625,2,3
1628,2107152333,EHP,121.749,24.3075,1.3574005365371704,33.09375,1,4
1628,2107152333,ECB,121.4512,23.3163,0.2726806402206421,1.013671875,0,1
1628,2107152333,EAH,121.7393,24.3293,1.2462117671966553,13.9453125,1,3
1628,2107152333,SHUL,121.5627,23.7875,5.505898952484131,14.578125,2,3
1628,2107152333,EHYH,121.3451,23.4938,0.38153594732284546,5.421875,0,2
1628,2107152333,SML,120.9083,23.8813,0.5834754705429077,0.3359375,0,0
1628,2107152333,CHK,121.373,23.0977,0.3645167052745819,0.306884765625,0,0
1628,2107152333,ALS,120.8134,23.5083,0.2774735391139984,0.341552734375,0,0
1628,2107152333,ELD,121.025,23.1871,0.19703423976898193,0.2293701171875,0,0
1628,2107152333,ENA,121.749,24.4263,1.406071662902832,10.5859375,1,3
1628,2107152333,NNS,121.3814,24.4374,1.4457645416259766,5.44921875,1,2
1628,2107152333,WJS,120.7279,23.8219,16.897911071777344,0.53369140625,3,0
1628,2107152333,WNT,120.6925,23.8767,0.2705797851085663,0.274658203125,0,0
1628,2107152333,WGK,120.5703,23.6844,0.359520822763443,0.53076171875,0,0
1628,2107152333,TCU,120.6841,24.1457,0.2689136564731598,0.447998046875,0,0
1628,2107152333,ENT,121.5736,24.6378,0.7402184009552002,2.79296875,0,2
1628,2107152333,WDLH,120.5381,23.6888,0.6334294676780701,2.068359375,0,1
1628,2107152333,TWC,121.8595,24.6082,0.3328130543231964,0.37353515625,0,0
1628,2107152333,NSK,121.3664,24.6735,0.3269937336444855,0.2496337890625,0,0
1628,2107152333,WTP,120.6223,23.2438,0.07445743680000305,0.342041015625,0,0
1628,2107152333,WCHH,120.5583,24.0795,1.131350040435791,0.54248046875,1,0
1628,2107152333,TWG,121.0799,22.8177,0.03805067017674446,0.34423828125,0,0
1628,2107152333,CHN2,120.4744,23.5319,0.31048309803009033,1.5419921875,0,1
1628,2107152333,TWE,121.6829,24.718,0.396249920129776,0.25244140625,0,0
1628,2107152333,NST,121.0087,24.6296,0.2741506099700928,0.336669921875,0,0
1628,2107152333,CHY,120.4325,23.4963,0.3260892927646637,0.441650390625,0,0
1628,2107152333,NWL,121.5025,24.7772,0.25015899538993835,0.29541015625,0,0
1628,2107152333,NMLH,120.791,24.5372,0.5025765299797058,0.53173828125,0,0
1628,2107152333,CHN1,120.5285,23.185,0.09650536626577377,0.2247314453125,0,0
1628,2107152333,SGS,120.5908,23.0804,0.10833748430013657,0.359375,0,0
1628,2107152333,SLG,120.6463,22.9934,0.07315891236066818,0.3193359375,0,0
1628,2107152333,ECL,120.962,22.596,0.030002333223819733,0.259765625,0,0
1628,2107152333,SSD,120.6402,22.7443,0.04711981117725372,0.343505859375,0,0
1628,2107152333,SCZ,120.6282,22.3703,0.024233149364590645,0.291748046875,0,0
1628,2107152333,TYC,120.8697,23.9052,0.09904220700263977,0.344970703125,0,0
1628,2107152333,YUS,120.9591,23.4873,0.48994022607803345,9.8125,0,3
1628,2107152333,TWB1,121.9972,25.0068,0.05617595836520195,0.38525390625,0,0
1628,2107152333,CHN4,120.594,23.3513,0.2577641010284424,0.271728515625,0,0
1628,2107152333,ILA,121.7563,24.7638,0.2718602418899536,0.939453125,0,1
1628,2107152333,TWA,121.5923,24.9778,0.0818689838051796,0.462890625,0,0
1628,2107152333,TWS1,121.4234,25.1014,0.09159249067306519,0.44189453125,0,0
1628,2107152333,NTS,121.4492,25.1644,0.20238108932971954,0.69580078125,0,0
1628,2107152333,HSN,121.0143,24.8282,0.26357513666152954,0.2607421875,0,0
1628,2107152333,WDG,119.6675,23.2574,0.02498944289982319,0.260498046875,0,0
1628,2107152333,TWQ1,120.7733,24.3465,0.22917065024375916,0.304931640625,0,0
1628,2107152333,WHY,120.8532,23.6961,0.2243167757987976,0.7705078125,0,0
1628,2107152333,WHP,120.9458,24.2777,0.2574727535247803,0.457763671875,0,0
1628,2107152333,NDT,121.5128,24.6025,0.2971007525920868,0.44287109375,0,0
1628,2107152333,WDJ,120.6403,24.3478,13.422853469848633,0.382080078125,3,0
1628,2107152333,ANP,121.5292,25.1826,1.6495987176895142,0.330078125,1,0
1628,2107152333,FULB,121.2939,23.1986,0.2775188982486725,0.401123046875,0,0
1628,2107152333,NOU,121.7734,25.1493,0.06348702311515808,0.564453125,0,0
1628,2107152333,WCS,120.9116,24.0566,0.3194575607776642,0.66796875,0,0
1628,2107152333,NDS,121.7168,24.634,0.7974194884300232,0.73291015625,0,0
1628,2107152333,STYH,120.7811,23.1794,0.11121121793985367,0.1898193359375,0,0
1628,2107152333,WRL,120.3781,23.9026,0.4778488278388977,0.9404296875,0,1
1628,2107152333,ECS,121.2192,23.0953,0.1881859302520752,0.6328125,0,0
1628,2107152333,WSL,120.2278,23.5226,0.249348446726799,0.5654296875,0,0
1628,2107152333,EHD,121.2061,23.1488,0.22295072674751282,0.22802734375,0,0
1628,2107152333,NFF,121.1177,24.6319,0.18467417359352112,0.29931640625,0,0
1628,2107152333,WCKO,120.6047,23.4385,0.370536208152771,0.2705078125,0,0
1628,2107152333,SCK,120.0865,23.1467,0.17192953824996948,0.293701171875,0,0
1628,2107152333,ESA,121.8439,24.5757,0.5004887580871582,1.4384765625,0,1
1628,2107152333,CHKH,121.3957,23.1917,0.2419913113117218,0.5234375,0,0
1628,2107152333,WCH1,120.5468,24.0718,1.1101672649383545,0.5048828125,1,0
1628,2107152333,KSHI,121.176,24.7766,0.41624853014945984,0.3251953125,0,0
1347,1804181336,EGFH,121.4274,23.6688,0.02085508406162262,3.228515625,0,2
1347,1804181336,ESL,121.4415,23.8121,0.09365066885948181,2.173828125,0,1
1347,1804181336,HWA,121.6135,23.9751,3.8945510387420654,4.01953125,2,2
1347,1804181336,EHY,121.3299,23.5038,0.0155946621671319,0.411865234375,0,0
1347,1804181336,TWD,121.6048,24.0813,0.7016432881355286,1.4951171875,0,1
1347,1804181336,TWF1,121.3053,23.3508,0.005494576878845692,0.300537109375,0,0
1347,1804181336,TWT,121.162,24.2495,0.051540080457925797,0.73486328125,0,0
1347,1804181336,WHF,121.2724,24.1434,0.4425744414329529,1.45703125,0,1
1347,1804181336,OWD,121.1759,23.9545,0.14552895724773407,1.0537109375,0,1
1347,1804181336,ETLH,121.4818,24.2068,0.4946257472038269,3.80859375,0,2
1347,1804181336,EYUL,121.3191,23.3472,0.02348102442920208,0.413818359375,0,0
1347,1804181336,ETM,121.4928,23.9655,0.7051793336868286,2.8125,0,2
1347,1804181336,ETL,121.623,24.1582,0.6120676398277283,5.453125,0,2
1347,1804181336,EHP,121.749,24.3075,0.1440061777830124,5.22265625,0,2
1347,1804181336,ECB,121.4512,23.3163,0.013640024699270725,0.66845703125,0,0
1347,1804181336,EAH,121.7393,24.3293,0.07594187557697296,1.9765625,0,1
1347,1804181336,SHUL,121.5627,23.7875,0.12911570072174072,2.271484375,0,1
1347,1804181336,EHYH,121.3451,23.4938,0.014069541357457638,1.4638671875,0,1
1347,1804181336,SML,120.9083,23.8813,0.022985326126217842,0.28076171875,0,0
1347,1804181336,CHK,121.373,23.0977,0.014884326606988907,0.27099609375,0,0
1347,1804181336,ALS,120.8134,23.5083,0.008246278390288353,0.295654296875,0,0
1347,1804181336,ELD,121.025,23.1871,0.00748974084854126,0.214599609375,0,0
1347,1804181336,NNSH,121.3829,24.4284,0.027608804404735565,0.49365234375,0,0
1347,1804181336,ENA,121.749,24.4263,0.14403517544269562,2.1015625,0,1
1347,1804181336,NNS,121.3814,24.4374,0.07019364088773727,1.2158203125,0,1
1347,1804181336,WJS,120.7279,23.8219,0.013027994893491268,0.405517578125,0,0
1347,1804181336,WNT,120.6925,23.8767,0.011794897727668285,0.2412109375,0,0
1347,1804181336,WGK,120.5703,23.6844,0.015859730541706085,0.3994140625,0,0
1347,1804181336,TCU,120.6841,24.1457,0.13510273396968842,0.353759765625,0,0
1347,1804181336,ENT,121.5736,24.6378,0.18933720886707306,0.74755859375,0,0
1347,1804181336,WDLH,120.5381,23.6888,0.049838535487651825,0.6318359375,0,0
1347,1804181336,TWC,121.8595,24.6082,0.024037526920437813,0.31103515625,0,0
1347,1804181336,NSK,121.3664,24.6735,0.016634289175271988,0.2291259765625,0,0
1347,1804181336,WTP,120.6223,23.2438,0.00398853188380599,0.28271484375,0,0
1347,1804181336,NSY,120.7696,24.4143,0.031203344464302063,0.404541015625,0,0
1347,1804181336,TWG,121.0799,22.8177,0.006241613999009132,0.283447265625,0,0
1347,1804181336,TWE,121.6829,24.718,0.04154311120510101,0.2296142578125,0,0
1347,1804181336,NST,121.0087,24.6296,0.010023722425103188,0.281005859375,0,0
1347,1804181336,NWL,121.5025,24.7772,0.02615111693739891,0.2587890625,0,0
1347,1804181336,TWL,120.4999,23.2648,0.004002188798040152,0.290771484375,0,0
1347,1804181336,NMLH,120.791,24.5372,0.02117564156651497,0.39453125,0,0
1347,1804181336,CHN1,120.5285,23.185,0.0037264348939061165,0.209716796875,0,0
1347,1804181336,SGS,120.5908,23.0804,0.010846329852938652,0.296875,0,0
1347,1804181336,SLG,120.6463,22.9934,0.012095190584659576,0.273681640625,0,0
1347,1804181336,WSF,120.2298,23.6364,0.02453206665813923,0.355224609375,0,0
1347,1804181336,ECL,120.962,22.596,0.0057050371542572975,0.2349853515625,0,0
1347,1804181336,SSD,120.6402,22.7443,0.0032788740936666727,0.286376953125,0,0
1347,1804181336,EAS,120.8564,22.382,0.003792132018133998,0.288818359375,0,0
1347,1804181336,SCZ,120.6282,22.3703,0.0038441249635070562,0.25341796875,0,0
1347,1804181336,PNG,119.5636,23.5652,0.008551073260605335,0.2783203125,0,0
1347,1804181336,TYC,120.8697,23.9052,0.0052308859303593636,0.28857421875,0,0
1347,1804181336,TWB1,121.9972,25.0068,0.007720599882304668,0.311279296875,0,0
1347,1804181336,CHN4,120.594,23.3513,0.0075080120004713535,0.235107421875,0,0
1347,1804181336,EGS,121.9437,24.8427,0.007719853892922401,0.39892578125,0,0
1347,1804181336,ILA,121.7563,24.7638,0.027818702161312103,0.49951171875,0,0
1347,1804181336,TWS1,121.4234,25.1014,0.007211540825664997,0.335693359375,0,0
1347,1804181336,TWY,121.6078,25.2724,0.03869284316897392,0.272216796875,0,0
1347,1804181336,WDG,119.6675,23.2574,0.002654050011187792,0.234619140625,0,0
1347,1804181336,TWQ1,120.7733,24.3465,0.008237844333052635,0.262451171875,0,0
1347,1804181336,WHY,120.8532,23.6961,0.00836545042693615,0.497802734375,0,0
1347,1804181336,WHP,120.9458,24.2777,0.07059670239686966,0.33740234375,0,0
1347,1804181336,NDT,121.5128,24.6025,0.01961877942085266,0.340087890625,0,0
1347,1804181336,WDJ,120.6403,24.3478,0.007636525202542543,0.310791015625,0,0
1347,1804181336,SNS,120.4973,23.2198,0.0030902300495654345,0.2216796875,0,0
1347,1804181336,FULB,121.2939,23.1986,0.01020139455795288,0.337890625,0,0
1347,1804181336,EDH,121.3039,22.9725,0.016460444778203964,0.38671875,0,0
1347,1804181336,LONT,121.1299,22.9064,0.010564588941633701,0.452880859375,0,0
1347,1804181336,WTK,120.3886,23.6877,0.07141609489917755,0.3662109375,0,0
1347,1804181336,SCS,120.4938,22.8856,0.02441420778632164,0.3955078125,0,0
1347,1804181336,TIPB,121.8256,24.9719,0.008452611044049263,0.31103515625,0,0
1347,1804181336,NOU,121.7734,25.1493,0.005312054883688688,0.416015625,0,0
1347,1804181336,LIOB,121.0162,24.6469,0.016936253756284714,0.364501953125,0,0
1347,1804181336,WPL,120.9492,24.014,0.05909162759780884,0.5302734375,0,0
1347,1804181336,DPDB,120.9264,24.0334,0.020771469920873642,0.4814453125,0,0
1347,1804181336,WNT1,120.6798,23.9068,0.017205754294991493,0.4453125,0,0
1347,1804181336,SMG,120.6448,22.7054,0.008541383780539036,0.275634765625,0,0
1347,1804181336,EWT,121.7783,24.445,0.08738574385643005,2.556640625,0,2
1347,1804181336,NDS,121.7168,24.634,0.05346837639808655,0.4609375,0,0
1347,1804181336,STYH,120.7811,23.1794,0.016568291932344437,0.184814453125,0,0
1347,1804181336,WRL,120.3781,23.9026,0.07329308986663818,0.458984375,0,0
1347,1804181336,ECS,121.2192,23.0953,0.014373630285263062,0.4375,0,0
1347,1804181336,EHD,121.2061,23.1488,0.013289244845509529,0.2122802734375,0,0
1347,1804181336,NFF,121.1177,24.6319,0.011714762076735497,0.257568359375,0,0
1347,1804181336,WCKO,120.6047,23.4385,0.01813112571835518,0.24169921875,0,0
1347,1804181336,SCK,120.0865,23.1467,0.3495199978351593,0.253173828125,0,0
1347,1804181336,ESA,121.8439,24.5757,0.07337412238121033,0.61865234375,0,0
1347,1804181336,CHKH,121.3957,23.1917,0.011634902097284794,0.3955078125,0,0
